FIPS,Number,lon,lat,StreetAddress,City,State,ZipCode,LocationName,LocationType,CountyName
02020,723492,-149.803646,61.187887,4210 University Drive,Anchorage,AK,99508,Alaska Climate Adaptation Science Center,Science Center,Anchorage
04005,721284,-111.6326899,35.2160194,2255 N. Gemini Drive,Flagstaff,AZ,86001,Astrogeology Science Center,Science Center,Coconino
04005,723412,-111.6326899,35.2160194,2255 N. Gemini Drive,Flagstaff,AZ,86001,"Southwest Biological Science Center - Flagstaff, AZ, Research Station",Field Station,Coconino
04005,740905,-111.6326899,35.2160194,2255 North Gemini Drive,Flagstaff,AZ,86001,Western Geographic Science Center - Flagstaff Project Office,Science Center,Coconino
04005,741170,-111.6326899,35.2160194,2255 N. Gemini Drive,Flagstaff,AZ,86001,"Arizona Water Science Center, Flagstaff Office",Field Station,Coconino
04013,741171,-111.9401712,33.4219341,1769 W. University Drive,Tempe,AZ,85281,"Arizona Water Science Center, Tempe Office",Field Station,Maricopa
04019,740902,-110.956572,32.216542,520 Park Ave.,Tucson,AZ,85719,Western Geographic Science Center - Tucson Project Office,Science Center,Pima
04019,943740,-110.9563733,32.2283112,"520 N. Park Avenue, Suite 221",Tucson,AZ,85719,"Arizona Water Science Center, Tucson Office",Science Center,Pima
04019,723472,-110.9555651,32.2285314,1064 Lowell Street,Tucson,AZ,85719,Southwest Climate Adaptation Science Center,Science Center,Pima
04027,741172,-114.598738,32.6755863,2995 South Pacific Avenue,Yuma,AZ,85365,"Arizona Water Science Center, Yuma Office",Field Station,Yuma
05119,721733,-92.397975,34.747244,401 Hardin Road,Little Rock,AR,72211,Arkansas Water Science Center,Science Center,Pulaski
05143,729769,-94.190997,35.974602,700 W Research Blvd,Fayetteville,AR,72701,"Lower Mississippi-Gulf Water Science Center - Fayetteville, AR Office",Field Station,Washington
06023,729994,-124.0880062,40.9031429,1655 Heindon Road,Arcata,CA,95521,Western Ecological Research Center - Redwood Field Station,Field Station,Humboldt
06037,718227,-118.1280493,34.1373242,525 South Wilson Avenue,Pasadena,CA,91106,Pasadena Field Office,Field Station,Los Angeles
06039,732431,-119.6582373,37.334474,"40298 Junction Dr., Suite A",Oakhurst,CA,93644,Western Ecological Research Center - Yosemite-Oakhurst Field Station,Field Station,Madera
06065,730000,-117.285674,33.9086373,21803 Cactus Ave. Suite F,Riverside,CA,92518,Western Ecological Research Center - Box Springs Field Station,Field Station,Riverside
06067,718478,-121.4206056,38.5599695,"6000 J Street, Placer Hall",Sacramento,CA,95819,Sacramento Projects Office (USGS California Water Science Center),Science Center,Sacramento
06067,721294,-121.4193259,38.553155,3020 State University Drive,Sacramento,CA,95819,Western Ecological Research Center - Headquarters,Science Center,Sacramento
06067,962255,-121.3872933,38.53156171,8550 23rd Avenue,Sacramento,CA,95826,Sacramento Field Office (USGS California Water Science Center),Field Station,Sacramento
06073,732451,-117.2106834,32.7318189,4165 Spruance Road Suite 200,San Diego,CA,92101,Western Ecological Research Center - San Diego Field Station,Field Station,San Diego
06073,912984,-117.2095493,32.7321392,4165 Spruance Road,San Diego,CA,92101,San Diego Projects Office (USGS California Water Science Center),Science Center,San Diego
06081,721584,-122.1847077,37.4535143,345 Middlefield Road,Menlo Park,CA,94025,"Geology, Minerals, Energy and Geophysics Science Center",Science Center,San Mateo
06081,721586,-122.1847077,37.4535143,345 Middlefield Road,Menlo Park,CA,94025,Earthquake Science Center,Science Center,San Mateo
06081,718492,-122.1684461,37.4568833,345 Middlefield Road,Menlo Park,CA,94025,USGS California Volcano Observatory (CalVO package delivery),Observatory,San Mateo
06081,721592,-122.1684461,37.4568833,350 N. Akron Rd.,Moffett Field,CA,94035,Western Geographic Science Center - Main Office,Science Center,San Mateo
06081,722130,-122.1684461,37.4568833,"345 Middlefield Road, MS 955",Menlo Park,CA,94025-3591,USGS Menlo Park Library,Other Facilities,San Mateo
06081,943975,-122.1684461,37.4568833,345 Middlefield Rd,Menlo Park,CA,94025,"USGS Water Mission Area - Menlo Park, CA",Mission Office,San Mateo
06083,732462,-119.848947,34.4139629,University of California Santa Barbara,Santa Barbara,CA,93106-6150,Western Ecological Research Center - Santa Barbara Field Station,Field Station,Santa Barbara
06087,732459,-122.0655899,36.9496812,"Long Marine Laboratory, UCSC 100 Shaffer Road",Santa Cruz,CA,95060,Western Ecological Research Center - Santa Cruz Field Station,Field Station,Santa Cruz
06087,718231,-122.0572457,36.9597256,2885 Mission Street,Santa Cruz,CA,95060,Pacific Coastal and Marine Science Center,Science Center,Santa Cruz
06087,962256,-122.0572457,36.9597256,2885 Mission Street,Santa Cruz,CA,95060,Santa Cruz Field Office (USGS California Water Science Center),Field Station,Santa Cruz
06095,732430,-122.2666923,38.0898613,505 Azuar Drive,Vallejo,CA,94592,Western Ecological Research Center - San Francisco Bay Estuary Field Station,Field Station,Solano
06095,732427,-121.8196192,38.4534912,"800 Business Park Drive, Suite D",Dixon,CA,95620,Western Ecological Research Center - Dixon Field Station,Field Station,Solano
06107,732460,-118.8262276,36.4901016,47050 Generals Highway #4,Three Rivers,CA,93271-9651,Western Ecological Research Center - Sequoia and Kings Canyon Field Station ,Field Station,Tulare
06111,730018,-119.2665518,34.2484866,1901 Spinnaker Drive,Ventura,CA,93001-4354,Western Ecological Research Center - Channel Islands Field Station,Field Station,Ventura
06113,730020,-121.7617125,38.5382322,"1 Shields Ave., University of California",Davis,CA,95616-5224,Western Ecological Research Center - Davis Field Station,Field Station,Yolo
06113,962315,-121.5413988,38.57286527,1280 Terminal Street,West Sacramento,CA,95691,West Sacramento Projects Office (USGS California Water Science Center),Field Station,Yolo
08013,723471,-105.2424912,40.0100112,4001 Discovery Drive,Boulder,CO,80303,North Central Climate Adaptation Science Center,Science Center,Boulder
08059,943955,-105.2204724,39.7494183,1711 Illinois Street,Golden,CO,80401,National Earthquake Information Center,Science Center,Jefferson
08059,723401,-105.2201891,39.7495123,1711 Illinois St.,Golden,CO,80401,Geologic Hazards Science Center,Science Center,Jefferson
08059,742980,-105.1111364,39.7155061,Denver Federal Center,Denver,CO,80225-0046,Geosciences and Environmental Change Science Center,Science Center,Jefferson
08059,912001,-105.109846,39.638698,West 6th Avenue and Kipling Street,Denver,CO,80225,Denver Microbeam Laboratory,Laboratory,Jefferson
08059,915175,-105.1097852,39.6337519,101 S. Kipling Street,Denver,CO,80226,The Core Research Center,Other Facilities,Jefferson
08059,721854,-105.109746,39.709896,W 6th Ave Kipling St,Lakewood,CO,80225,SAS Program Office,Duty Station,Jefferson
08059,722177,-105.1096438,39.727185,West 6th Avenue and Kipling Street,Lakewood,CO,80225,"Geology, Geophysics, and Geochemistry Science Center",Science Center,Jefferson
08059,943974,-105.1096068,39.7185421,Kipling St,Denver,CO,80225,"USGS Water Mission Area - Denver, CO",Mission Office,Jefferson
08059,915336,-105.0865526,40.5709358,Colorado State University,Fort Collins,CO,80523,Colorado Cooperative Fish And Wildlife Research Unit,Coop Unit,Jefferson
08059,721689,-105.08137,39.70471,West 6th Avenue and Kipling Street,Lakewood,CO,80225,Colorado Water Science Center - Main Office,Science Center,Jefferson
08059,743733,-105.0811041,40.5603073,2150 Centre Ave,Fort Collins,CO,80526-8118,Molecular Ecology Lab (MEL),Laboratory,Jefferson
08059,718225,-105.025094,39.715721,"Box 25046, MS 914",Denver,CO,80225-0046,USGS Denver Library,Other Facilities,Jefferson
08059,909522,-105.025094,39.715721,Denver Federal Center,Denver,CO,80225-0046,"National Geospatial Technical Operations Center - Denver, CO",Science Center,Jefferson
08059,929314,-105.025094,39.715721,One Denver Federal Center,Denver,CO,80225,"CEGIS - Denver, CO",Other Facilities,Jefferson
08059,939402,-105.025078,39.716639,1 Denver Federal Center,Denver,CO,80225,NSF Ice Core Facility,Program Office,Jefferson
08059,723402,-104.984703,39.739154,Denver Federal Center,Denver,CO,80225-0046,Central Energy Resources Science Center,Science Center,Jefferson
08067,736107,-107.8733973,37.2362844,103 Sheppard Drive,Durango,CO,81303,Colorado Water Science Center - Durango Field Office,Field Station,La Plata
08069,963250,-105.082586,40.560501,Fort Collins Science Center (FORT),Fort Collins,CO,80526,John Wesley Powell Center for Earth System Analysis and Synthesis,Science Center,Larimer
08069,943741,-105.0811041,40.5603073,2150 Centre Avenue,Fort Collins,CO,80526,Fort Collins Science Center,Science Center,Larimer
08077,943747,-108.5750215,39.0722948,445 W Gunnison Ave,Grand Junction,CO,81501,Colorado Water Science Center - Western Colorado Office: Grand Junction,Science Center,Mesa
08101,943746,-104.605429,38.275386,201 E 9th St,Pueblo,CO,81003,"Colorado Water Science Center - Southeast Colorado Office: Pueblo, CO",Science Center,Pueblo
09003,721307,-72.648878,41.763695,101 Pitkin Street,East Hartford,CT,6108,New England Water Science Center - Connecticut Office,Science Center,Hartford
12001,718311,-82.4180272,29.7229388,7920 NW 71st St.,Gainesville,FL,32653,"Wetland and Aquatic Research Center - Gainesville, FL",Science Center,Alachua
12011,722133,-80.2385075,26.0844337,3205 College Avenue,Davie,FL,33314,"Wetland and Aquatic Research Center - Davie, FL",Duty Station,Broward
12011,941449,-80.2384968,26.0798004,3321 College Avenue,Davie,FL,33314,Caribbean-Florida Water Science Center Davie office,Field Station,Broward
12071,941240,-81.886644,26.59654,"1400 Colonial Boulevard, Suite 70",Fort Myers,FL,33907,Caribbean-Florida Water Science Center - Fort Myers office,Field Station,Lee
12073,941269,-84.2967914,30.4761654,2639 North Monroe St,Tallahassee,FL,32303,Caribbean Florida Water Science Center - Tallahassee Field office,Field Station,Leon
12087,723438,-80.99998,24.731436,10 Parachute Key,Homestead,FL,33034,USGS Everglades Research Offices,Field Station,Monroe
12095,941444,-81.192896,28.58924,12703 Research Parkway,Orlando,FL,32826,Caribbean-Florida Water Science Center - Orlando Office,Field Station,Orange
12101,721758,-82.380819,28.223821,4446 Pet Lane,Lutz,FL,33559,Caribbean-Florida Water Science Center - Florida Office,Science Center,Pasco
12103,947316,-82.63815,27.763967,600 4th Street South,St. Petersburg,FL,33701,USGS-St. Petersburg Carbon Analytical Laboratory,Laboratory,Pinellas
12103,721831,-82.6380207,27.7636688,600 4th Street South,St. Petersburg,FL,33701,St. Petersburg Coastal and Marine Science Center,Science Center,Pinellas
13051,726672,-81.1254958,32.0568362,765 Alligator Alley,Hardeeville,SC,29927,South Atlantic Water Science Center - Georgia: Savannah Field Office,Field Station,Chatham
13067,721754,-84.488984,33.921464,1770 Corporate Drive,Norcross,GA,30093,"South Atlantic Water Science Center - Norcross, GA Office",Science Center,Cobb
13277,727746,-83.487085,31.4468211,1890 Fletcher Road,Tifton,GA,31794,"South Atlantic Water Science Center - Tifton, GA Field Office",Field Station,Tift
15001,949146,-155.0718142,19.7223183,1266 Kamehameha Ave,Hilo,HI,96720,Hawaiian Volcano Observatory,Observatory,Hawaii
15003,723413,-157.9627982,21.3658911,1845 Wasp Blvd,Honolulu,HI,96818,O'ahu Field Station,Field Station,Honolulu
15003,725148,-157.946006,21.350957,"1845 Wasp Blvd., B176",Honolulu,HI,96818,Pacific Islands Water Science Center,Science Center,Honolulu
15003,909207,-157.8623345,21.3034692,300 Ala Moana Blvd,Honolulu,HI,96850,"National Wildlife Health Center, Honolulu Field Station",Field Station,Honolulu
15003,723491,-157.8166145,21.2981408,2525 Correa Rd,Honolulu,HI,96822,Pacific Islands Climate Adaptation Science Center,Science Center,Honolulu
16001,904540,-116.213081,43.604977,970 South Lusk Street,Boise,ID,83706,Forest and Rangeland Ecosystem Science Center (FRESC) Snake River Field Station,Field Station,Ada
16001,721311,-116.1892776,43.6173775,230 Collins Rd.,Boise,ID,83702-4520,Idaho Water Science Center,Science Center,Ada
16001,726671,-116.1892776,43.6173775,230 Collins Rd.,Boise,ID,83702,Idaho Water Science Center - Boise Field Office,Field Station,Ada
16001,727016,-116.1892776,43.6173775,230 Collins Road,Boise,ID,83702,Idaho Water Science Center - Groundwater Training Facility,Field Station,Ada
16019,741491,-112.046685,43.516404,1955 Fremont Avenue,Idaho Falls,ID,83415,Idaho Water Science Center - Idaho National Laboratory Project Office,Field Station,Bonneville
16019,741490,-112.0383037,43.4951706,366 D Street,Idaho Falls,ID,83405,Idaho Water Science Center - Idaho Falls Field Office,Field Station,Bonneville
16055,726675,-117.007433,47.700047,721 Lochsa Street,Post Falls,ID,83854,Idaho Water Science Center - Post Falls Field Office,Field Station,Kootenai
16057,915337,-117.014806,46.730066,College of Natural Resources,Moscow,ID,83844,Idaho Cooperative Fish And Wildlife Research Unit,Coop Unit,Kootenai
17019,721700,-88.2244675,40.1158924,405 N. Goodwin Ave.,Urbana,IL,61801,Illinois Water Science Center,Science Center,Champaign
17037,926170,-88.724147,41.9124989,650 Peace Road,DeKalb,IL,60115,Northern Illinois Field Office - DeKalb,Field Station,DeKalb
17081,926169,-88.898684,38.3177513,105 South 6th Street,Mt Vernon,IL,62864,Southern Illinois Field Office - Mt. Vernon,Field Station,Jackson
18097,721705,-86.26607,39.876695,5957 Lakeside Blvd,Indianapolis,IN,46278,Indiana - Indianapolis Office,Science Center,Marion
18127,928794,-87.047,41.6143,1574 North 300 East,Chesterton,IN,46304,Lake Michigan Ecological Research Station,Field Station,Porter
19103,721707,-91.534175,41.6570871,400 S Clinton St,Iowa City,IA,52240,Iowa Water Science Center,Science Center,Johnson
19155,926171,-95.852993,41.257082,8 South 6th Street,Council Bluffs,IA,51501,Western Iowa Field Office - Council Bluffs,Field Station,Pottawattamie
19187,926172,-94.192107,42.5082235,407 North 5th Street,Fort Dodge,IA,50501,Central Iowa Field Office - Fort Dodge,Field Station,Webster
20035,725151,-97.1094837,37.2591916,"7920 West Kellogg, Suite 4",Wichita,KS,67209,Wichita Field Office,Field Station,Coffey
20045,721693,-95.309512,38.9633266,1217 Biltmore Drive,Lawrence,KS,66049,Kansas Water Science Center,Science Center,Douglas
20045,725150,-95.309512,38.9633266,1217 Biltmore Drive,Lawrence,KS,66049,Organic Geochemistry Research Laboratory (OGRL),Laboratory,Douglas
20051,725153,-99.2992506,38.8692308,1204 Canterbury Drive,Hays,KS,67601,Hays Field Office,Field Station,Douglas
21035,725339,-88.3377486,36.6173734,2009 College Farm Road,Murray,KY,42071,Kentucky - Murray Field Office,Science Center,Calloway
21111,955717,-85.57176,38.221336,9818 Bluegrass Parkway,Louisville,KY,40299,Ohio-Kentucky-Indiana Water Science Center,Science Center,Jefferson
21111,721711,-85.5717548,38.2213289,9818 Bluegrass Parkway,Louisville,KY,40299,Kentucky Water Science Center,Science Center,Jefferson
21111,725152,-85.5717548,38.2213289,9818 Bluegrass Parkway,Louisville,KY,40299,Kentucky - Louisville Office,Science Center,Jefferson
21235,725158,-84.1718485,36.7332982,50 Main Street,Williamsburg,KY,40769,Kentucky - Williamsburg Field Office,Science Center,Webster
22033,721736,-91.0513794,30.4211835,3535 South Sherwood Forest Blvd.,Baton Rouge,LA,70816,"Lower Mississippi-Gulf Water Science Center - Baton Rouge, LA Office",Science Center,East Baton Rouge
22033,896512,-91.0513794,30.4211835,3535 South Sherwood Forest Blvd. Suite 120,Baton Rouge,LA,70816, Louisiana Water Science Center,Program Office,East Baton Rouge
22055,718350,-92.0470212,30.2275713,700 Cajundome Blvd.,Lafayette,LA,70506-3152,"Wetland and Aquatic Research Center - Lafayette, LA ",Science Center,Lafayette
22061,729833,-92.674521,32.5076197,3095 W California Ave,Ruston,LA,71270,"Lower Mississippi-Gulf Water Science Center - Ruston, LA Office",Field Station,Lincoln
22061,896513,-92.674521,32.5076197,3095 West California Ave.,Ruston,LA,71270,Ruston Program Office,Science Center,Lincoln
22115,896514,-93.210028,31.030965,1727 23rd Street,Fort Polk South,LA,71459,Fork Polk Project Office,Program Office,Vernon
23011,723221,-69.8092397,44.3044717,196 Whitten Rd,Augusta,ME,4330,New England Water Science Center - Maine Office,Science Center,Kennebec
24005,718219,-76.7132992,39.2478982,5522 Research Park Drive,Catonsville,MD,21228,MD-DE-DC Water Science Center,Science Center,Baltimore
24005,943745,-76.7132992,39.2478982,5522 Research Park Drive,Baltimore,MD,21228,Chesapeake Bay Activities,Science Center,Baltimore
24033,726663,-76.9220123,39.0274353,10300 Baltimore Avenue,Beltsville,MD,20705,Patuxent Wildlife Research Center - Beltsville Lab,Field Station,Prince George's
24033,723203,-76.869106,39.093074,12100 Beech Forest Road,Laurel,MD,20708-4039,Patuxent Wildlife Research Center,Science Center,Prince George's
25001,722340,-70.6506313,41.5333426,384 Woods Hole Rd.,Woods Hole,MA,2543,Woods Hole Coastal and Marine Science Center,Science Center,Barnstable
25011,729133,-72.56962,42.59827,1 Migratory Way,Turners Falls,MA,1376,USGS S.O. Conte Anadromous Research Center,Field Station,Franklin
25011,741289,-72.56962,42.59827,One Migratory Way,Turners Falls,MA,1376,LSC Conte Anadromous Fish Laboratory,Laboratory,Franklin
25015,723468,-72.5244919,42.3896234,611 N Pleasant St,Amherst,MA,1003,Northeast Climate Adaptation Science Center,Science Center,Hampshire
25027,721768,-71.6347953,42.3408502,10 Bearfoot Road,Northborough,MA,1532,New England Water Science Center - Massachusetts/Rhode Island Office,Science Center,Worcester
26039,729803,-84.70315,44.713286,1955 Hartwick Pines Road,Grayling,MI,49738,"Upper Midwest Water Science Center - Grayling, Mich., Field Office",Field Station,Crawford
26041,729802,-87.0702066,45.7455021,1601 Ludington Street,Escanaba,MI,49829,"Upper Midwest Water Science Center - Escanaba, Mich., Field Office",Field Station,Delta
26065,723832,-84.5361103,42.6642782,5840 Enterprise Drive,Lansing,MI,48911-4107,Michigan Bacteriological Research Laboratory (MI-BaRL),Laboratory,Ingham
26065,721713,-84.536061,42.664347,5840 Enterprise Drive,Lansing,MI,48911-4107,"Upper Midwest Water Science Center - Lansing, Mich., Office",Science Center,Ingham
26065,729837,-84.536061,42.664347,5840 Enterprise Drive,Lansing,MI,48911-4107,"Upper Midwest Water Science Center - Lansing, Mich., Field Office",Field Station,Ingham
26141,928790,-84.037829,45.493835,11188 Ray Rd,Millersbug,MI,49759,Hammond Bay Biological Station,Field Station,Ottawa
26161,721694,-83.6931423,42.2940172,1451 Green Road,Ann Arbor,MI,48105,Great Lakes Science Center,Science Center,Washtenaw
27123,721722,-93.2012236,45.0972,2280 Woodale Drive,Mounds View,MN,55112,"Upper Midwest Water Science Center - Mounds View, Minn., Office",Science Center,Ramsey
28121,721730,-90.072458,32.274354,308 Airport Road,Jackson,MS,39208,"Lower Mississippi-Gulf Water Science Center - Jackson, MS Office",Science Center,Rankin
29019,721674,-92.273384,38.91237,4200 New Haven Road,Columbia,MO,65201-8709,Columbia Environmental Research Center,Science Center,Boone
29161,721718,-91.7439954,37.953832,1400 Independence Road,Rolla,MO,65401,Missouri Water Science Center,Science Center,Pettis
29161,909521,-91.7439954,37.953832,1400 Independence Road,Rolla,MO,65401,CEGIS - Missouri,Other Facilities,Pettis
29161,929207,-91.7439954,37.953832,1400 Independence Road,Rolla,MO,65401,"National Geospatial Technical Operations Center - Rolla, MO",Science Center,Pettis
29189,926168,-90.3747,38.6746,9351 Industrial Center,Olivette,MO,63132,Eastern Missouri - Olivette,Field Station,St. Louis
30029,718313,-113.9824431,48.4963369,PO Box 169,West Glacier,MT,59936,Northern Rocky Mountain Science Center (NOROCK) West Glacier Field Station,Field Station,Flathead
30031,718312,-111.05085,45.65611,2327 University Way,Bozeman,MT,59715,Northern Rocky Mountain Science Center (NOROCK) Headquarters,Science Center,Gallatin
30049,721773,-111.9802399,46.6001346,3162 Bozeman Avenue,Helena,MT,59601,Wyoming-Montana Water Science Center - Helena Office,Science Center,Lewis and Clark
30049,908376,-111.9790595,46.6004601,3162 Bozeman Avenue,Helena,MT,59601,Helena Montana,Science Center,Lewis and Clark
30063,718314,-113.9976663,46.8565286,Aldo Leopold Wilderness Research Institute,Missoula,MT,59801,Northern Rocky Mountain Science Center (NOROCK) Missoula Field Station,Field Station,Missoula
31109,721318,-96.694861,40.7617954,5231 South 19th Street,Lincoln,NE,68512-1271,Nebraska Water Science Center,Science Center,Lancaster
31111,735997,-100.7599595,41.1351774,303 East 3rd Street,North Platte,NE,69101,North Platte Field Office,Field Station,Lincoln
32003,902591,-115.0467693,36.0363579,160 N. Stephanie St.,Henderson,NV,89074,Nevada Water Science Center Henderson Office,Field Station,Clark
32003,732448,-115.0450004,36.0373762,160 N Stephanie,Henderson,NV,89074,Western Ecological Research Center - Henderson Field Station ,Field Station,Clark
32510,721587,-119.7019435,39.1766747,2730 N. Deer Run Road,Carson City,NV,89701,Nevada Water Science Center,Science Center,Carson City
33013,721330,-71.4794196,43.1889155,361 Commerce Way,Pembroke,NH,03275-3718,New England Water Science Center - New Hampshire/Vermont Office,Science Center,Merrimack
34021,721327,-74.706221,40.29488,3450 Princeton Pike,Lawrenceville,NJ,8648,New Jersey Water Science Center,Science Center,Mercer
35001,943748,-106.692859,34.924035,Target Road 10002 Isleta SE,Kirtland AFB,NM,87117,Albuquerque Seismological Laboratory,Laboratory,Bernalillo
35001,721673,-106.622038,35.155135,6700 Edith Blvd NE,Albuquerque,NM,87113,New Mexico Water Science Center,Science Center,Bernalillo
35005,911807,-104.5654812,33.3949683,2909 W 2nd St.,Roswell,NM,88201,Roswell Field Office,Field Station,Chaves
35043,723437,-106.3220515,35.7650567,Bandelier National Monument,Los Alamos,NM,87544,New Mexico Landscapes Field Station,Science Center,Sandoval
36023,928800,-76.244902,42.555544,3075 Gracie Road,Cortland,NY,13045-9457,Tunison Laboratory of Aquatic Science,Field Station,Cortland
36075,928796,-76.5243247,43.4609551,17 Lake St.,Oswego,NY,13126-1025,Lake Ontario Biological Station,Field Station,Oswego
36083,722006,-73.6965193,42.6810219,425 Jordan Road,Troy,NY,12180-8349,New York Water Science Center - Troy Program Office,Science Center,Rensselaer
36089,732086,-74.9894381,44.6703629,22 Depot Street,Potsdam,NY,13676,New York Water Science Center - Potsdam Field Office,Field Station,St. Lawrence
36103,731807,-73.046761,40.924565,2045 Route 112,Coram,NY,11727,New York Water Science Center - Coram Program Office,Program Office,Suffolk
36103,915153,-73.0170967,40.7550591,120 Laurel Street,Patchogue,NY,11772,"Fire Island, NY",Regional Office,Suffolk
36109,731798,-76.464412,42.487506,30 Brown Road,Ithaca,NY,14850,New York Water Science Center - Ithaca Program Office,Program Office,Tompkins
37021,726670,-82.518007,35.459553,44 Buck Shoals Road,Asheville,NC,28704-3307,South Atlantic Water Science Center - North Carolina: Asheville Field Office,Field Station,Buncombe
37119,726673,-80.8822942,35.1650087,810 Tyvola Road,Charlotte,NC,28217,South Atlantic Water Science Center - North Carolina: Charlotte Field Office,Field Station,Mecklenburg
37183,721752,-78.7058754,35.8128037,3916 Sunset Ridge Road,Raleigh,NC,27607,"South Atlantic Water Science Center - Raleigh, NC Office",Science Center,Wake
37183,723464,-78.6253,35.7977,127 David Clark Labs,Raleigh,NC,27695,Southeast Climate Adaptation Science Center,Science Center,Wake
38015,721702,-100.802234,46.832435,821 East Interstate Avenue,Bismarck,ND,58503,Dakota Water Science Center- Bismarck,Science Center,Burleigh
38035,743769,-97.046688,47.8894144,4575 32nd Ave South,Grand Forks,ND,58201,Dakota Water Science Center- Grand Forks Field Office,Science Center,Grand Forks
38093,721723,-98.627406,46.878161,8711 37th Street Southeast,Jamestown,ND,58401-7317,Northern Prairie Wildlife Research Center,Science Center,Stark
39043,928793,-82.7088842,41.4513272,6100 Columbus Ave.,Sandusky,OH,44870-8329,Lake Erie Biological Station,Field Station,Erie
39049,721732,-82.9927119,40.0881216,6460 Busch Blvd.,Columbus,OH,43229-1737,Ohio - Columbus Office,Science Center,Franklin
39049,723831,-82.9927119,40.0881216,6460 Busch Blvd,Columbus,OH,43229-1737,Ohio - Ohio Water Microbiology Laboratory (OWML),Laboratory,Franklin
39157,729820,-81.4557221,40.5046663,1515 Brightwood Rd SE,New Philadelphia,OH,44663,Ohio - New Philadelphia Field Office,Field Station,Tuscarawas
40027,723469,-97.439471,35.185146,201 Stephenson Parkway,Norman,OK,73072,South Central Climate Adaptation Science Center,Science Center,Cleveland
40109,721688,-97.5154156,35.5394814,202 NW 66th Street,Oklahoma City,OK,73116,Oklahoma Water Science Center,Science Center,Oklahoma
41003,904696,-123.2860965,44.5644972,3200 SW Jefferson Way,Corvallis,OR,97331,Forest and Rangeland Ecosystem Science Center (FRESC) Corvallis Research Group,Field Station,Benton
41003,915338,-123.2838822,44.563077,Oregon State University,Corvallis,OR,97331,Oregon Cooperative Fish And Wildlife Research Unit,Coop Unit,Benton
41003,943742,-123.2641487,44.571447,777 NW 9th St,Corvallis,OR,97330,Forest and Rangeland Ecosystem Science Center (FRESC) Headquarters,Science Center,Benton
41003,905140,-122.9912711,38.017769,Pt. Reyes National Seashore,Pt. Reyes,CA,94956,Western Ecological Research Center - Pt. Reyes Field Station,Field Station,Benton
41029,738800,-122.8754308,42.3855345,4890 N Runway Drive,Medford,OR,97502,Medford Field Office,Field Station,Jackson
41035,726668,-121.7541707,42.1813881,"2795 Anderson Ave., Suite 106",Klamath Falls,OR,97603-9572,Klamath Falls Field Station,Field Station,Klamath
41035,739082,-121.7541707,42.1813881,2795 Anderson Ave,Klamath Falls,OR,97603,Klamath Falls Field Office,Field Station,Klamath
41051,721670,-122.6827385,45.507576,2130 SW 5th Ave.,Portland,OR,97201,Oregon Water Science Center,Science Center,Multnomah
42003,912510,-80.108944,40.367795,1025 Washington Pike,Bridgeville,PA,15017-2702,Pittsburgh,Field Station,Allegheny
42029,912509,-75.7183,40.0161,408 Boot Road,Downingtown,PA,19335,Downingtown,Field Station,Chester
42081,912511,-77.0068906,41.2411169,439 Hepburn Street,Williamsport,PA,17701,Williamsport,Field Station,Lycoming
42117,741290,-77.308,41.7373,176 Straight Run Road,Wellsboro,PA,16901,LSC Northern Appalachian Research Laboratory,Laboratory,Tioga
42133,721325,-76.87456,40.214972,215 Limekiln Road,New Cumberland,PA,17070,Pennsylvania Water Science Center,Science Center,York
45019,727759,-79.8987565,32.7507986,219 Fort Johnson Road,Charleston,SC,29412,"South Atlantic Water Science Center - Charleston, SC Field Office",Field Station,Charleston
45079,721753,-81.0861958,34.0164475,720 Gracern Road,Columbia,SC,29210,"South Atlantic Water Science Center - Columbia, SC Office",Science Center,Richland
46005,743772,-98.212575,44.342883,111 Kansas Ave SE,Huron,SD,57350,Dakota Water Science Center- Huron Programs Office,Program Office,Beadle
46065,743773,-100.400566,44.4465598,28563 Powerhouse Rd,Pierre,SD,57501,Dakota Water Science Center- Pierre Field Office,Science Center,Hughes
46099,718233,-96.628126,43.732305,47914 252nd Street,Garretson,SD,57030,Earth Resources Observation and Science (EROS) Center,Science Center,Minnehaha
46103,743771,-103.607143,43.763372,1608 Mountain View,Rapid City,SD,57702,Dakota Water Science Center- Rapid City,Science Center,Pennington
46135,737265,-97.4765478,42.8743354,31247 436th Avenue,Yankton,SD,57078,"Yankton, South Dakota Field Research Station",Field Station,Yankton
47037,721319,-86.7497424,36.0863925,640 Grassmere Park Drive,Nashville,TN,37211,"Lower Mississippi-Gulf Water Science Center - Nashville, TN Office",Science Center,Davidson
47093,729824,-83.981578,35.939793,4700 Old Kingston Pike,Knoxville,TN,37919,"Lower Mississippi-Gulf Water Science Center - Knoxville, TN Office",Field Station,Knox
48029,915673,-98.59142,29.563197,5563 DeZavala,San Antonio,TX,78249,South Texas Branch (San Antonio) Office,Field Station,Bexar
48141,915448,-106.3407835,31.7502884,10737 Gateway Blvd. West,El Paso,TX,79935,El Paso Field Office,Field Station,El Paso
48303,915340,-101.9771211,33.5138345,8802 Urbana Avenue,Lubbock,TX,79424,Lubbock Field Office,Field Station,Lubbock
48339,915342,-95.449169,30.183291,19241 David Memorial Drive,Conroe,TX,77385,Gulf Coast Branch (Houston) Office,Field Station,Montgomery
48355,915457,-97.323117,27.715361,6300 Ocean Drive,Corpus Christi,TX,78412,Corpus Christi Field Office,Field Station,Nueces
48439,915406,-97.3325034,32.6747705,Ft Worth Federal Center,Fort Worth,TX,76115,North Texas Branch (Fort Worth) Office,Field Station,Tarrant
48451,915456,-100.4547553,31.4294701,3745 S. Jackson Street,San Angelo,TX,76903,San Angelo Field Office,Field Station,Tom Green
48453,721685,-97.675916,30.345535,1505 Ferguson Lane,Austin,TX,78754,Texas Water Science Center,Science Center,Travis
48485,915405,-98.5868692,33.8729445,Midwestern State University,Wichita Falls,TX,76308,Wichita Falls Field Office,Field Station,Wichita
49005,915339,-111.8122309,41.7411504,Utah State University,Logan,UT,84322,Utah Cooperative Fish And Wildlife Research Unit,Coop Unit,Cache
49019,741494,-109.5518864,38.5701377,121 W 200 S,Moab,UT,84532,Moab Field Office,Field Station,Garfield
49019,723411,-109.50969,38.538794,2290 SW Resource Blvd,Moab,UT,84532,"Southwest Biological Science Center - Moab, UT, Research Station",Field Station,Garfield
49021,739300,-113.0895097,37.6844062,"401 N 2150 W, Suite 4",Cedar City,UT,84721,Cedar City Field Office,Field Station,Iron
49035,721682,-111.9507288,40.7186426,2329 West Orton Circle,West Valley City,UT,84119-2047,Utah Water Science Center,Science Center,Salt Lake
49035,741496,-111.95042,40.718648,2329 West Orton Circle,Salt Lake City,UT,84119,Salt Lake Field Office,Field Station,Salt Lake
51059,718316,-77.3701632,38.9480448,274 Ellington Plant Sciences Building,Knoxville,TN,37996,Northern Rocky Mountain Science Center (NOROCK) Southern Appalachian Duty Station,Duty Station,Fairfax
51059,718486,-77.3699775,38.947771,913 National Center,Reston,VA,20192,Mineral Resources Program Office,Program Office,Fairfax
51059,718226,-77.367453,38.947225,12201 Sunrise Valley Drive,Reston,VA,20192,U.S. Geological Survey Headquarters,Mission Office,Fairfax
51059,720843,-77.367453,38.947225,12201 Sunrise Valley Drive,Reston,VA,20192,National Climate Adaptation Science Center,Program Office,Fairfax
51059,723204,-77.367453,38.947225,12201 Sunrise Valley Drive,Reston,VA,21092,Florence Bascom Geoscience Center,Science Center,Fairfax
51059,943973,-77.367453,38.947225,12201 Sunrise Valley Drive,Reston,VA,20192,"USGS Water Mission Area Headquarters - Reston, VA",Mission Office,Fairfax
51059,721684,-77.3672364,38.9501387,12201 Sunrise Valley Drive,Reston,VA,20192,Eastern Energy Resources Science Center,Science Center,Fairfax
51059,721690,-77.3672364,38.9501387,12201 Sunrise Valley Drive,Reston,VA,20192,Eastern Mineral & Environmental Resources Science Center,Science Center,Fairfax
51059,737282,-77.3672364,38.9501387,12201 Sunrise Valley Dr,Reston,VA,20192,Cooperative Research Units Program Headquarters,Coop Unit,Fairfax
51059,912954,-77.3672364,38.9501387,12201 Sunrise Valley Drive,Reston,VA,20192,"Office of Budget, Planning, and Integration (BPI)",Program Office,Fairfax
51059,943749,-77.3672364,38.9501387,12201 Sunrise Valley Drive,Reston,VA,20192-0002,Energy and Minerals Mission Area Headquarters,Mission Office,Fairfax
51059,728226,-77.367236,38.950139,12201 Sunrise Valley Drive,Reston,VA,20192,Environmental Health Mission Area Headquarters,Mission Office,Fairfax
51059,721037,-77.3437437,38.9453943,12201 Sunrise Valley Drive,Reston,VA,20192,Office of Communications and Publishing,Headquarters,Fairfax
51059,722414,-77.3437437,38.9453943,"950 National Center, Room 1D100",Reston,VA,20192,USGS Reston Library - Clarence King Memorial Library (Main Library),Other Facilities,Fairfax
51059,722512,-77.3437437,38.9453943,12201 Sunrise Valley Drive,Reston,VA,20192,Land Remote Sensing Program,Program Office,Fairfax
51059,722536,-77.3437437,38.9453943,12201 Sunrise Valley Drive,Reston,VA,20192,Climate Research and Development Program Office,Program Office,Fairfax
51059,722537,-77.3437437,38.9453943,12201 Sunrise Valley Drive,Reston,VA,20192,Land Resources Mission Area Office,Mission Office,Fairfax
51059,722538,-77.3437437,38.9453943,12201 Sunrise Valley Drive,Reston,VA,20192,Land Change Science Program Office,Program Office,Fairfax
51059,725953,-77.3437437,38.9453943,12201 Sunrise Valley Drive,Reston,VA,20192,Office of Congressional Affairs,Headquarters,Fairfax
51059,726319,-77.3437437,38.9453943,12201 Sunrise Valley Dr,Reston,VA,72211,Eastern Geographic Science Center,Science Center,Fairfax
51059,914798,-77.3437437,38.9453943,U.S. Geological Survey 12201 Sunrise Valley Drive,Reston,VA,20192,Reston Stable Isotope Laboratory (RSIL),Laboratory,Fairfax
51059,718228,-77.343469,38.998014,988 National Center,Reston,VA,20192,National Minerals Information Center,Science Center,Fairfax
51087,721762,-77.47589,37.638725,1730 East Parham Road,Richmond,VA,23228,Virginia and West Virginia Water Science Center,Science Center,Henrico
51121,726674,-80.4282497,37.2298808,"304 Cheatham Hall, 0324",Blacksburg,VA,24061,Patuxent Wildlife Research Center - Virginia Polytechnic Institute,Field Station,Montgomery
53005,740535,-119.242264,46.212117,"9232 Clearwater Dr., Suite A",Kennewick,WA,99336,Mid-Columbia Field Office,Field Station,Benton
53009,904694,-123.434411,48.101583,600 East Park Avenue,Port Angeles,WA,98362,Forest and Rangeland Ecosystem Science Center (FRESC) Olympic Field Station,Field Station,Clallam
53033,904695,-122.3300624,47.6038321,"University of Washington, School of Environmental and Forest Sciences",Seattle,WA,98195-2100,Forest and Rangeland Ecosystem Science Center (FRESC) Cascadia Field Station,Field Station,King
53033,931665,-122.3300624,47.6038321,"Univ of Washington, Dept of Earth and Space Sciences",Seattle,WA,98195,Seattle Field Office,Field Station,King
53033,721337,-122.256469,47.6755,6505 NE 65th Street,Seattle,WA,98115-5016,Western Fisheries Research Center (WFRC),Science Center,King
53053,721334,-122.4405994,47.2552721,934 Broadway,Tacoma,WA,98402,Washington Water Science Center,Science Center,Pierce
53059,943743,-121.631972,45.763964,5501-A Cook Underwood Rd.,Cook,WA,98605-9717,Columbia River Research Laboratory,Laboratory,Skamania
53063,740536,-117.411098,47.657992,West 920 Riverside Avenue,Spokane,WA,99201,Upper Columbia Field Office,Field Station,Spokane
53073,738534,-122.5568603,48.8176964,"1350 Slater Road, Suite 5",Ferndale,WA,98248,Northwest Washington Field Office,Field Station,Whatcom
54037,723201,-77.9078235,39.3707169,11649 Leetown Road,Kearneysville,WV,25430,Leetown Science Center,Science Center,Jefferson
54037,741287,-77.8906815,39.3848873,11649 Leetown Road,Kearneysville,WV,25430,LSC Fish Health Laboratory,Laboratory,Jefferson
54037,741288,-77.8906815,39.3848873,11649 Leetown Road,Kearneysville,WV,25430,LSC Aquatic Ecology Laboratory,Laboratory,Jefferson
55003,928798,-90.8784158,46.5947929,2800 Lake Shore Dr. East,Ashland,WI,54806-2427,Lake Superior Biological Station,Field Station,Ashland
55025,575767,-89.532689,43.091883,8505 Research Way,Middleton,WI,53562,"Upper Midwest Water Science Center - Middleton, Wis., Office",Science Center,Dane
55025,575776,-89.5325418,43.0920107,8505 Research Way,Middleton,WI,53562,Mercury Research Laboratory,Laboratory,Dane
55025,721720,-89.4837458,43.0497065,6006 Schroeder Road,Madison,WI,53711-6223,National Wildlife Health Center,Science Center,Dane
55063,738507,-91.2611952,43.8656867,2630 Fanta Reed Road,La Crosse,WI,54603,Upper Midwest Environmental Sciences Center,Science Center,La Crosse
56001,915341,-105.5894932,41.3126773,University of Wyoming,Laramie,WY,82071,Wyoming Cooperative Fish And Wildlife Research Unit,Coop Unit,Albany
56039,718315,-110.748162,43.4797663,675 E. Broadway,jackson,WY,83001,Northern Rocky Mountain Science Center (NOROCK) Jackson Duty Station,Duty Station,Teton
56039,737270,-110.7366597,43.5343668,1475 Fish Hatchery Road,Jackson,WY,83001,"Jackson, Wyoming Field Research Station",Field Station,Teton
72061,721744,-66.1154,18.4288,651 Federal Drive,Guaynabo,,965,Caribbean-Florida Water Science Center - Puerto Rico Office,Science Center,Washakie
78020,722136,-64.758701,18.352138,1300 Cruz Bay Creek,St. John,VI,830,"Wetland and Aquatic Research Center - St. John, USVI",Field Station,Washakie
